{
  "breweries": [
    {
      "id": "e432899b-7f58-455f-9c7b-9a6e2130a1e0",
      "name": "10 Barrel Brewing Co",
      "brewery_type": "large",
      "address_1": "1411 NW Flanders St",
      "city": "Portland",
      "state_province": "Oregon",
      "postal_code": "97209-2620",
      "country": "United States",
      "longitude": "-122.6855056",
      "latitude": "45.5259786",
      "phone": "5032241700",
      "website_url": "http://www.10barrel.com",
      "state": "Oregon",
      "street": "1411 NW Flanders St",
      "image": "",
      "likes": 1
    },
    {
      "id": "936c3d7e-5d54-4459-b72c-117cdda059b4",
      "name": "13 Virtues Brewing Co",
      "brewery_type": "brewpub",
      "address_1": "6410 SE Milwaukie Ave",
      "city": "Portland",
      "state_province": "Oregon",
      "postal_code": "97202-5518",
      "country": "United States",
      "longitude": "-122.6487531",
      "latitude": "45.4762536",
      "phone": "5032393831",
      "website_url": "http://www.13virtuesbrewing.com",
      "state": "Oregon",
      "street": "6410 SE Milwaukie Ave",
      "image": "",
      "likes": 1
    },
    {
      "id": "b7db853a-e8aa-430f-84c8-d49b72184d01",
      "name": "Alameda Brewing Co",
      "brewery_type": "micro",
      "address_1": "4736 SE 24th Ave",
      "city": "Portland",
      "state_province": "Oregon",
      "postal_code": "97202-4787",
      "country": "United States",
      "longitude": "-122.6412495",
      "latitude": "45.48882655",
      "phone": "5034609025",
      "website_url": null,
      "state": "Oregon",
      "street": "4736 SE 24th Ave",
      "image": "",
      "likes": 1
    },
    {
      "id": "07ad4030-fb5b-4eb7-9b28-d7f5556b145d",
      "name": "Alameda Brewing Co",
      "brewery_type": "micro",
      "address_1": "4765 NE Fremont St",
      "city": "Portland",
      "state_province": "Oregon",
      "postal_code": "97213-1724",
      "country": "United States",
      "longitude": "-122.6136209",
      "latitude": "45.54849565",
      "phone": "5034609025",
      "website_url": "http://www.alamedabrewing.com",
      "state": "Oregon",
      "street": "4765 NE Fremont St",
      "image": "",
      "likes": 1
    },
    {
      "id": "4cc17a95-7020-43f2-bc23-b9d9ddd29a10",
      "name": "Arlington Club",
      "brewery_type": "micro",
      "address_1": "811 SW Salmon St",
      "city": "Portland",
      "state_province": "Oregon",
      "postal_code": "97205-3094",
      "country": "United States",
      "longitude": "-122.6818596",
      "latitude": "45.51786855",
      "phone": "5032234141",
      "website_url": "http://www.thearlingtonclub.com",
      "state": "Oregon",
      "street": "811 SW Salmon St",
      "image": "",
      "likes": 1
    },
    {
      "id": "051edb66-62ad-455e-a04a-d6a0e5fa4178",
      "name": "Asher Brewing Co",
      "brewery_type": "micro",
      "address_1": "4699 Nautilus Ct S Ste 104",
      "city": "Boulder",
      "state_province": "Colorado",
      "postal_code": "80301-5306",
      "country": "United States",
      "longitude": null,
      "latitude": null,
      "phone": "3035301381",
      "website_url": "http://asherbrewing.com",
      "state": "Colorado",
      "street": "4699 Nautilus Ct S Ste 104",
      "image": "",
      "likes": 1
    },
    {
      "id": "3bde4342-bfc1-49cb-9b40-7fb1aef26886",
      "name": "Avery Brewing Co",
      "brewery_type": "regional",
      "address_1": "4910 Nautilus Ct N",
      "city": "Boulder",
      "state_province": "Colorado",
      "postal_code": "80301-3242",
      "country": "United States",
      "longitude": "-105.2047652",
      "latitude": "40.0625835",
      "phone": null,
      "website_url": null,
      "state": "Colorado",
      "street": "4910 Nautilus Ct N",
      "image": "",
      "likes": 1
    },
    {
      "id": "01e79aac-e955-4846-826e-1936e03bfd13",
      "name": "Beyond The Mountain Brewing Company",
      "brewery_type": "micro",
      "address_1": "6035 Longbow Dr Unit 109",
      "city": "Boulder",
      "state_province": "Colorado",
      "postal_code": "80301-3203",
      "country": "United States",
      "longitude": null,
      "latitude": null,
      "phone": "7574072346",
      "website_url": "http://www.btmbrewing.com",
      "state": "Colorado",
      "street": "6035 Longbow Dr Unit 109",
      "image": "",
      "likes": 1
    },
    {
      "id": "57b4c49f-7c62-4f88-8027-deeb7aa29a99",
      "name": "BJs Restaurant & Brewery - Boulder",
      "brewery_type": "brewpub",
      "address_1": "1690 28th St",
      "city": "Boulder",
      "state_province": "Colorado",
      "postal_code": "80301-",
      "country": "United States",
      "longitude": "-105.258512",
      "latitude": "40.0291592",
      "phone": "3034405200",
      "website_url": "http://www.bjsrestaurants.com",
      "state": "Colorado",
      "street": "1690 28th St",
      "image": "",
      "likes": 1
    },
    {
      "id": "01a7842a-3139-475e-95e9-e5a671c236ef",
      "name": "Black Cat Brewing",
      "brewery_type": "planning",
      "address_1": null,
      "city": "Boulder",
      "state_province": "Colorado",
      "postal_code": "80302",
      "country": "United States",
      "longitude": "-105.2705456",
      "latitude": "40.0149856",
      "phone": null,
      "website_url": "http://www.blackcatbrewing.com",
      "state": "Colorado",
      "street": null,
      "image": "",
      "likes": 1
    },
    {
      "id": "c4ed1b9c-3e81-4419-bc5b-789c3f4f53e8",
      "name": "Barlows Brewery",
      "brewery_type": "micro",
      "address_1": "705 SE Park Crest Ave Suite D430",
      "city": "Vancouver",
      "state_province": "Washington",
      "postal_code": "98683",
      "country": "United States",
      "longitude": "-122.5216242",
      "latitude": "45.6177956",
      "phone": "3608593795",
      "website_url": "https://www.barlowsbrewery.com",
      "state": "Washington",
      "street": "705 SE Park Crest Ave Suite D430",
      "image": "",
      "likes": 1
    },
    {
      "id": "cbce47ad-2da8-4de9-806f-9c8e3fb39f76",
      "name": "Beerded Brothers Brewing",
      "brewery_type": "closed",
      "address_1": "106 W 6th St",
      "city": "Vancouver",
      "state_province": "Washington",
      "postal_code": "98660",
      "country": "United States",
      "longitude": "-122.6718911",
      "latitude": "45.62576802",
      "phone": "3606065806",
      "website_url": "http://www.beerdedbrothers.net",
      "state": "Washington",
      "street": "106 W 6th St",
      "image": "",
      "likes": 1
    },
    {
      "id": "809d5238-5077-4731-82fa-7ec6d4ca10d9",
      "name": "Brother Ass Brewing",
      "brewery_type": "micro",
      "address_1": "11700 NE 54th Ct",
      "city": "Vancouver",
      "state_province": "Washington",
      "postal_code": "98686-4589",
      "country": "United States",
      "longitude": "-122.6170235",
      "latitude": "45.70699686",
      "phone": "3606073275",
      "website_url": "http://www.brotherassbrewing.com",
      "state": "Washington",
      "street": "11700 NE 54th Ct",
      "image": "",
      "likes": 1
    },
    {
      "id": "c657e584-d468-40a7-835a-aa0bd8ecbf92",
      "name": "Brothers Cascadia Brewing",
      "brewery_type": "micro",
      "address_1": "9811 NE 15th Ave",
      "city": "Vancouver",
      "state_province": "Washington",
      "postal_code": "98665-9102",
      "country": "United States",
      "longitude": "-122.6553318",
      "latitude": "45.6499058",
      "phone": "3607188927",
      "website_url": "http://www.brotherscascadiabrewing.com",
      "state": "Washington",
      "street": "9811 NE 15th Ave",
      "image": "",
      "likes": 1
    },
    {
      "id": "55608d36-62d6-449d-a7f6-a1e0df277831",
      "name": "Doomsday Brewing Pub and Pizza - Vancouver",
      "brewery_type": "brewpub",
      "address_1": "9301 NE 5th Ave Ste 120",
      "city": "Vancouver",
      "state_province": "Washington",
      "postal_code": "98665-8271",
      "country": "United States",
      "longitude": "-122.6666369",
      "latitude": "45.68816081",
      "phone": "3605598241",
      "website_url": "http://www.doomsdaybrewing.com",
      "state": "Washington",
      "street": "9301 NE 5th Ave Ste 120",
      "image": "",
      "likes": 1
    }
  ]
}
